{
    "cities": [
        {
            "id": "washington_d.c.",
            "city": "Washington, D.C.",
            "country": "USA",
            "cityCountryNativeLang": "",
            "latitude": 38.9072,
            "longitude": -77.0369,
            "cityWikiURL": "https://en.wikipedia.org/wiki/Washington,_D.C.",
            "countryWikiURL": "https://en.wikipedia.org/wiki/United_States",
            "timeZoneID": "America/New_York"
        },
        {
            "id": "mexico_city",
            "city": "Mexico City",
            "country": "Mexico",
            "cityCountryNativeLang": "Ciudad de México, México",
            "latitude": 19.4326,
            "longitude": -99.1332,
            "cityWikiURL": "https://en.wikipedia.org/wiki/Mexico_City",
            "countryWikiURL": "https://en.wikipedia.org/wiki/Mexico",
            "timeZoneID": "America/Mexico_City"
        },
        {
            "id": "brasília",
            "city": "Brasília",
            "country": "Brazil",
            "cityCountryNativeLang": "",
            "latitude": -15.7975,
            "longitude": -47.8919,
            "cityWikiURL": "https://en.wikipedia.org/wiki/Bras%C3%ADlia",
            "countryWikiURL": "https://en.wikipedia.org/wiki/Brazil",
            "timeZoneID": "America/Sao_Paulo"
        },
        {
            "id": "bogotá",
            "city": "Bogotá",
            "country": "Colombia",
            "cityCountryNativeLang": "",
            "latitude": 4.7110,
            "longitude": -74.0721,
            "cityWikiURL": "https://en.wikipedia.org/wiki/Bogot%C3%A1",
            "countryWikiURL": "https://en.wikipedia.org/wiki/Colombia",
            "timeZoneID": "America/Bogota"
        },
        {
            "id": "cairo",
            "city": "Cairo",
            "country": "Egypt",
            "cityCountryNativeLang": "القاهرة مصر (Al-Qāhirah, Miṣr)",
            "latitude": 30.0444,
            "longitude": 31.2357,
            "cityWikiURL": "https://en.wikipedia.org/wiki/Cairo",
            "countryWikiURL": "https://en.wikipedia.org/wiki/Egypt",
            "timeZoneID": "Africa/Cairo"
        },
        {
            "id": "lagos",
            "city": "Lagos",
            "country": "Nigeria",
            "cityCountryNativeLang": "",
            "latitude": 6.5244,
            "longitude": 3.3792,
            "cityWikiURL": "https://en.wikipedia.org/wiki/Lagos",
            "countryWikiURL": "https://en.wikipedia.org/wiki/Nigeria",
            "timeZoneID": "Africa/Lagos"
        },
        {
            "id": "gaza_city",
            "city": "Gaza City",
            "country": "Palestine",
            "cityCountryNativeLang": "غزة فلسطين (Gaza, Filasṭīn)",
            "latitude": 31.5017,
            "longitude": 34.4668,
            "cityWikiURL": "https://en.wikipedia.org/wiki/Gaza_City",
            "countryWikiURL": "https://en.wikipedia.org/wiki/Palestine",
            "timeZoneID": "Asia/Gaza"
        },
        {
            "id": "sanaa",
            "city": "Sana'a",
            "country": "Yemen",
            "cityCountryNativeLang": "صنعاء اليمن (Ṣan‘ā’, Al-Yaman)",
            "latitude": 15.3545,
            "longitude": 44.2064,
            "cityWikiURL": "https://en.wikipedia.org/wiki/Sanaa",
            "countryWikiURL": "https://en.wikipedia.org/wiki/Yemen",
            "timeZoneID": "Asia/Aden"
        },
        {
            "id": "tokyo",
            "city": "Tokyo",
            "country": "Japan",
            "cityCountryNativeLang": "東京, 日本 (Tōkyō, Nihon/Nippon)",
            "latitude": 35.6764,
            "longitude": 139.6500,
            "cityWikiURL": "https://en.wikipedia.org/wiki/Tokyo",
            "countryWikiURL": "https://en.wikipedia.org/wiki/Japan",
            "timeZoneID": "Asia/Tokyo"
        },
        {
            "id": "paris",
            "city": "Paris",
            "country": "France",
            "cityCountryNativeLang": "",
            "latitude": 48.8575,
            "longitude": 2.3514,
            "cityWikiURL": "https://en.wikipedia.org/wiki/Paris",
            "countryWikiURL": "https://en.wikipedia.org/wiki/France",
            "timeZoneID": "Europe/Paris"
        },
        {
            "id": "bern",
            "city": "Bern",
            "country": "Switzerland",
            "cityCountryNativeLang": "",
            "latitude": 46.9480,
            "longitude": 7.4474,
            "cityWikiURL": "https://en.wikipedia.org/wiki/Bern",
            "countryWikiURL": "https://en.wikipedia.org/wiki/Switzerland",
            "timeZoneID": "Europe/Zurich"
        },
        {
            "id": "sydney",
            "city": "Sydney",
            "country": "Australia",
            "cityCountryNativeLang": "",
            "latitude": -33.8688,
            "longitude": 151.2093,
            "cityWikiURL": "https://en.wikipedia.org/wiki/Sydney",
            "countryWikiURL": "https://en.wikipedia.org/wiki/Australia",
            "timeZoneID": "Australia/Sydney"
        },
        {
            "id": "mcmurdo_station",
            "city": "McMurdo Station",
            "country": "Antarctica",
            "cityCountryNativeLang": "",
            "latitude": -77.8455,
            "longitude": 166.6698,
            "cityWikiURL": "https://en.wikipedia.org/wiki/McMurdo_Station",
            "countryWikiURL": "https://en.wikipedia.org/wiki/Antarctica",
            "timeZoneID": "Antarctica/McMurdo"
        }
    ]
}
